City_ID,City,Cloudiness,Country,Date,Humidity,Lat,Lng,Max Temp,Wind Speed
0,Melekhovo,61,RU,1655374714,49,56.2773,41.2935,294.46,3.75
1,Mattawa,84,US,1655374714,62,46.7379,-119.9028,289.27,3.13
2,Jacksonville,0,US,1655374645,91,30.3322,-81.6556,299.81,0.0
3,Buncrana,100,IE,1655374715,84,55.1333,-7.45,290.02,4.71
4,Musoma,19,TZ,1655374715,54,-1.5,33.8,299.59,2.18
5,Lupşanu,26,RO,1655374715,40,44.3833,26.9,299.64,1.94
6,Bantilan,48,PH,1655374524,76,14.7519,121.6656,302.59,2.21
7,Pualas,81,PH,1655374716,91,8.0172,123.8481,298.83,1.7
8,Baliton,97,PH,1655374615,80,5.7436,125.2364,300.4,0.98
9,Weymouth,40,US,1655374716,93,42.2209,-70.9398,289.25,3.09
10,Luncoiu de Jos,73,RO,1655374716,31,46.1,22.7667,298.52,1.34
11,Tinaogan,94,PH,1655374696,73,9.7791,123.1503,302.21,1.15
12,Olfen,19,DE,1655374717,46,51.7,7.4,297.4,3.16
13,Sampiro,100,PH,1655374717,76,13.7842,121.3842,302.99,2.34
14,Cary,88,US,1655374717,82,35.7915,-78.7811,296.39,2.41
15,Leonidovo,24,RU,1655374717,77,49.2833,142.8667,288.19,0.13
16,Kruglolesskoye,53,RU,1655374718,49,44.6589,42.8142,297.11,5.97
17,Guangzhou,100,CN,1655374717,84,23.1167,113.25,302.12,1.5
18,Altoona,45,US,1655374718,94,40.5187,-78.3947,297.17,1.58
19,Elbistan,0,TR,1655374718,28,38.2059,37.1983,298.85,0.72
20,San Juan de Betulia,100,CO,1655374718,94,9.2735,-75.241,295.89,1.71
21,Bowmore,0,US,1655374719,85,34.9421,-79.3031,297.1,0.0
22,Komárov,83,CZ,1655374719,50,49.8065,13.8564,299.85,2.87
23,Guifões,40,PT,1655374720,77,41.2004,-8.6672,296.23,3.6
24,Coyoles,89,MX,1655374720,93,19.4825,-96.6858,291.69,2.62
25,Itinga,1,BR,1655374720,89,-16.6131,-41.7653,287.53,0.33
26,Camargo,14,MX,1655374720,45,27.6667,-105.1667,297.68,2.83
27,Hettstedt,70,DE,1655374721,51,51.65,11.5,298.08,5.24
28,Ituaçu,0,BR,1655374721,81,-13.8133,-41.2967,289.3,0.53
29,Banda Aceh,99,ID,1655374721,72,5.5577,95.3222,301.7,0.4
30,Sampaloc,67,PH,1655374722,79,14.5402,121.3602,301.81,2.45
31,Krutaya Gorka,70,RU,1655374722,61,55.3649,73.2231,295.97,4.45
32,Schwaigern,33,DE,1655374722,46,49.1439,9.055,302.57,4.32
33,Annāmalainagar,63,IN,1655374722,58,11.4,79.7333,305.13,5.88
34,Sâncraiu,76,RO,1655374722,45,46.8333,22.9833,295.19,2.38
35,Plombières,20,BE,1655374723,53,50.735,5.953,295.34,4.21
36,Stăniţa,25,RO,1655374723,42,47.0167,27.1,298.29,1.52
37,Colombo,100,LK,1655374724,81,6.9319,79.8478,300.57,4.01
38,Kharhiāl,100,IN,1655374725,37,20.2833,82.7667,309.05,4.51
39,Puta,6,AZ,1655374725,45,40.2967,49.6603,300.16,6.75
40,Durania,84,CO,1655374725,81,7.7131,-72.6576,291.66,1.94
41,Gyenesdiás,0,HU,1655374726,50,46.7706,17.2866,299.14,4.12
42,Warri,100,NG,1655374726,80,5.5167,5.75,300.63,0.6
43,Norwalk,100,US,1655374726,84,33.9022,-118.0817,293.5,2.06
44,East Patchogue,75,US,1655374726,85,40.767,-72.9962,292.75,3.58
45,Jhīnjhak,57,IN,1655374727,20,26.5667,79.7333,316.06,6.31
46,Ibiporã,0,BR,1655374727,94,-23.2692,-51.0481,286.55,1.03
47,Galbenu,8,RO,1655374727,36,45.2167,27.1667,299.02,2.06
48,Streetsboro,0,US,1655374728,84,41.2392,-81.3459,300.05,0.45
49,Hlubočky,100,CZ,1655374728,61,49.6178,17.3944,299.42,4.75
50,Ceamurlia de Jos,14,RO,1655374728,47,44.7333,28.7167,301.01,5.05
51,Portgordon,75,GB,1655374728,77,57.6635,-3.016,290.11,2.57
52,Künzell,38,DE,1655374729,41,50.5442,9.7179,297.43,1.79
53,Sādri,86,IN,1655374729,44,25.1833,73.4333,307.58,5.12
54,Sant Pere de Ribes,96,ES,1655374730,74,41.2667,1.7667,311.71,0.45
55,Golden,0,US,1655374730,34,39.7555,-105.2211,290.6,4.63
56,Vahagni,15,AM,1655374730,69,40.907,44.6087,295.74,1.21
57,Englewood,0,US,1655374730,42,39.6478,-104.9878,291.43,2.06
58,Chardara,4,KZ,1655374730,22,41.2547,67.9692,307.46,2.23
59,Mehrān,0,IR,1655374731,6,33.1222,46.1646,315.45,12.54
60,Dori,99,BF,1655374731,38,14.0354,-0.0345,307.75,3.53
61,Ichinoseki,91,JP,1655374693,90,38.9167,141.1333,291.4,0.99
62,Santa Rita,20,BR,1655374731,88,-7.1139,-34.9781,297.52,3.09
63,Tarnos,0,FR,1655374732,61,43.5417,-1.4628,304.59,5.66
64,Senhor do Bonfim,55,BR,1655374731,93,-10.4614,-40.1894,289.06,3.33
65,São Paulo,0,BR,1655374732,92,-23.5475,-46.6361,288.96,1.03
66,Starozhilovo,28,RU,1655374732,65,54.2254,39.916,292.55,3.07
67,Santo Amaro,61,BR,1655374733,88,-12.5467,-38.7119,293.06,1.44
68,Welkenraedt,23,BE,1655374733,48,50.6627,5.9733,295.19,3.13
69,Radomireşti,13,RO,1655374733,39,44.1167,24.6833,299.32,2.51
70,Hasselt,14,BE,1655374733,42,50.9311,5.3378,296.79,3.74
71,Mackay,0,AU,1655374734,85,-21.15,149.2,289.64,3.93
72,Talca,20,CL,1655374734,95,-35.4333,-71.6667,280.19,1.35
73,Tiep,100,PH,1655374735,71,16.2382,119.8609,301.94,3.21
74,Püspökladány,39,HU,1655374735,27,47.3167,21.1167,301.47,2.44
75,Barra do Corda,41,BR,1655374735,87,-5.5,-45.25,293.98,0.82
76,Gharo,2,PK,1655374735,53,24.7424,67.5856,308.27,10.56
77,Neulengbach,15,AT,1655374736,60,48.1974,15.9022,301.32,1.79
78,Vladimir,23,RU,1655374736,52,56.1366,40.3966,293.31,3.26
79,Wiarton,75,CA,1655374737,83,44.7407,-81.1332,294.4,4.63
80,Dombegyház,41,HU,1655374737,30,46.3333,21.1333,301.2,2.27
81,Aygek,20,AM,1655374737,26,40.1886,44.3833,301.52,2.06
82,Strongsville,40,US,1655374737,83,41.3145,-81.8357,300.72,4.63
83,Zalakomár,0,HU,1655374738,50,46.538,17.1809,299.14,4.12
84,Simcoe,45,CA,1655374738,89,42.8334,-80.2997,297.62,6.23
85,Colotenango,100,GT,1655374739,90,15.406,-91.7127,288.31,2.08
86,Borcea,8,RO,1655374739,36,44.3333,27.75,299.76,1.18
87,Zarubino,16,RU,1655374739,94,42.63,131.0922,287.04,3.87
88,Cornélio Procópio,0,BR,1655374740,91,-23.1811,-50.6467,283.51,1.96
89,Baudh,98,IN,1655374740,33,20.8416,84.3213,311.09,4.45
90,Sobreda,20,PT,1655374740,69,38.6496,-9.1898,295.88,3.09
91,Blanquefort,0,FR,1655374740,42,44.9125,-0.6366,304.43,2.57
92,Vinica,0,MK,1655374740,52,41.8828,22.5092,297.84,1.18
93,Khuchni,60,RU,1655374741,55,41.9499,47.9485,297.41,5.17
94,Kandete,17,TZ,1655374741,56,-9.15,33.8,295.59,1.61
95,Alushta,21,UA,1655374742,51,44.6667,34.4167,296.14,2.82
96,Tokyo,75,JP,1655374504,82,35.6895,139.6917,296.37,5.66
97,Taremskoye,89,RU,1655374742,54,55.9289,43.0443,293.71,3.4
98,Great Yarmouth,63,GB,1655374742,63,52.6083,1.7305,297.29,3.83
99,Jishou,98,CN,1655374743,75,28.3167,109.7167,299.1,1.95
100,Bridgetown,20,BB,1655374743,74,13.1,-59.6167,300.42,8.75
101,Matabungkay Road Locality,100,PH,1655374743,72,13.9523,120.6198,302.59,2.66
102,Jerez,100,GT,1655374744,98,14.1,-89.75,291.29,1.21
103,Poggiomarino,53,IT,1655374745,69,40.8031,14.539,304.1,2.11
104,Menzelinsk,36,RU,1655374745,56,55.7271,53.1026,298.88,5.4
105,Goedereede,15,NL,1655374745,51,51.8175,3.9806,297.56,1.68
106,Fasa,0,IR,1655374746,7,28.9383,53.6482,313.73,4.12
107,Aranjuez,65,ES,1655374746,23,40.0311,-3.6025,308.31,2.9
108,Bekhtery,2,UA,1655374746,35,46.251,32.2927,297.19,4.84
109,Atid,24,RO,1655374746,42,46.45,25.05,296.12,2.92
110,Kuldīga,88,LV,1655374747,44,56.974,21.9572,291.98,3.32
111,Naga,89,PH,1655374710,78,13.6192,123.1814,301.59,1.85
112,Bluffton,25,US,1655374747,92,32.2371,-80.8604,300.34,2.51
113,Ronse,63,BE,1655374747,49,50.7505,3.6049,298.23,2.77
114,Mogadouro,91,PT,1655374748,31,41.3403,-6.7119,301.99,1.93
115,Zvenigovo,100,RU,1655374748,63,55.9742,48.0181,292.68,3.25
116,Nagornyy,82,RU,1655374748,68,52.7959,83.5498,293.4,4.07
117,Arkhara,100,RU,1655374749,96,49.4212,130.0842,289.66,2.7
118,Mazatepec,100,MX,1655374749,74,18.7167,-99.35,296.21,0.7
119,Angarsk,77,RU,1655374749,40,52.5367,103.8864,292.55,2.74
120,Limburg,8,NL,1655374749,43,51.25,6.0,297.21,0.45
121,Mangit,4,UZ,1655374749,16,40.5971,70.9607,310.09,0.98
122,Puerto Castilla,96,HN,1655374750,82,16.0167,-85.9667,298.16,2.26
123,Balingueo,99,PH,1655374750,74,15.9555,120.4081,302.44,4.09
124,Roosevelt,0,US,1655374750,54,33.9668,-103.4505,297.27,6.97
125,Hanover,40,DE,1655374751,47,52.3705,9.7332,296.62,4.12
126,Pañgobilian,96,PH,1655374751,73,8.8011,117.8594,301.89,2.09
127,Āsbe Teferī,26,ET,1655374751,24,9.0833,40.8667,302.78,0.85
128,Chiapa,100,MX,1655374752,99,18.4669,-96.945,288.05,1.39
129,Saint George,0,US,1655374752,21,37.1041,-113.5841,295.48,1.54
130,Ílhavo,90,PT,1655374752,81,40.5999,-8.6673,297.54,0.38
131,Nizhniy Tsasuchey,7,RU,1655374753,27,50.5167,115.1333,299.92,2.88
132,Saint-Felix-de-Valois,74,CA,1655374753,91,46.1668,-73.4324,291.4,1.31
133,Barmstedt,88,DE,1655374753,54,53.7833,9.7667,294.49,1.79
134,Husasău de Tinca,43,RO,1655374753,35,46.8167,21.9167,300.38,1.77
135,Mandlā,96,IN,1655374754,48,22.6,80.3833,305.99,2.57
136,Saint-Gilles,0,FR,1655374754,29,43.6766,4.4302,306.68,2.06
137,Campagna,0,IT,1655374754,62,40.6653,15.1059,305.84,4.12
138,Richmond,75,US,1655374755,63,37.5538,-77.4603,297.14,4.12
139,Baay,75,PH,1655374755,74,18.1188,120.5753,303.92,3.09
140,Dar es Salaam,26,TZ,1655374446,62,-6.8235,39.2695,301.99,5.17
141,Paterson,100,US,1655374755,78,40.9168,-74.1718,293.57,2.57
142,Indianola,0,US,1655374756,87,41.3581,-93.5574,291.48,3.82
143,Patos,63,BR,1655374756,86,-7.0244,-37.28,295.52,1.49
144,San Jose,0,US,1655374756,72,37.3394,-121.895,287.73,2.57
145,Macea,49,RO,1655374757,36,46.3833,21.3,301.17,2.26
146,Tomilino,0,RU,1655374758,33,55.6553,37.9253,295.96,4.0
147,Novo Selo,5,MK,1655374758,49,41.4139,22.8811,299.23,1.43
148,Beauceville,64,CA,1655374758,72,46.2179,-70.7787,290.65,1.54
149,Samokov,15,BG,1655374758,51,42.3333,23.55,296.18,2.22
150,Himaao,97,PH,1655374759,79,13.5448,123.3005,301.19,1.26
151,Upper Klinan,80,PH,1655374759,82,6.2272,125.1208,297.78,1.73
152,Royal Leamington Spa,91,GB,1655374759,45,52.3,-1.5333,296.11,1.69
153,Crucea,8,RO,1655374760,35,44.5333,28.2333,300.42,2.14
154,Liozon,100,PH,1655374760,74,15.3993,119.933,302.37,1.8
155,Meseşenii de Jos,57,RO,1655374760,42,47.15,22.9833,297.24,1.29
156,Bago,99,MM,1655374760,71,17.3367,96.4797,303.08,3.26
157,Hukeri,96,IN,1655374761,49,16.2333,74.6,301.93,8.18
158,Bayāna,48,IN,1655374761,31,26.9,77.2833,311.64,10.63
159,Szigetújfalu,9,HU,1655374762,38,47.2342,18.9275,301.74,2.99
160,Krasnyye Baki,100,RU,1655374762,52,57.131,45.1599,293.6,4.32
161,Greenwood,0,US,1655374763,55,34.1668,-82.1165,298.35,0.0
162,Santa Flavia,10,IT,1655374763,44,38.085,13.5351,304.69,3.58
163,San Antonio,40,US,1655374763,86,29.4241,-98.4936,298.85,3.6
164,Mizhhirya,78,UA,1655374764,40,48.5246,23.5056,294.7,4.06
165,Dhidhdhoo,97,MV,1655374667,75,6.8833,73.1,301.52,7.26
166,Kars,40,TR,1655374765,49,40.602,43.095,293.4,2.06
167,Toyoshina,100,JP,1655374765,83,36.2999,137.9011,291.48,1.88
168,Cacimbinhas,100,BR,1655374765,93,-9.4003,-36.9903,292.98,1.52
169,Hino,0,JP,1655374526,78,35.6731,139.4003,297.14,0.0
170,Denton,0,US,1655374766,71,33.2001,-97.1336,301.3,3.6
171,Hijo,100,PH,1655374766,92,7.3823,125.8506,298.11,0.41
172,Indang,63,PH,1655374516,77,14.2,120.8833,302.46,1.57
173,Waimalu,75,US,1655374767,85,21.4047,-157.9433,296.38,4.47
174,Grebenskaya,62,RU,1655374767,34,43.5317,46.3733,303.58,3.53
175,San Giuseppe Vesuviano,0,IT,1655374768,64,40.8298,14.5044,303.65,3.6
176,Baelen,24,BE,1655374768,48,50.6313,5.9743,294.85,3.13
177,Krasnaya Zarya,2,RU,1655374768,60,52.7825,37.6806,292.26,5.07
178,Mykolayivka,60,UA,1655374768,37,47.5414,30.7561,295.94,2.2
179,Kilchberg,20,CH,1655374769,55,47.3244,8.5455,303.16,4.12
180,Tashigang,100,BT,1655374769,98,27.3331,91.5542,294.31,0.97
181,Khakhea,0,BW,1655374769,27,-24.6895,23.494,287.01,2.23
182,Mullovka,100,RU,1655374770,74,54.2,49.4,297.05,3.21
183,Alhaurín el Grande,0,ES,1655374770,47,36.643,-4.6873,299.74,4.12
184,Jarocin,70,PL,1655374770,44,51.9727,17.5026,297.89,1.94
185,Quattro Castella,11,IT,1655374771,54,44.635,10.4743,302.74,1.11
186,Goúmero,13,GR,1655374771,40,37.7667,21.6167,300.84,3.13
187,Mafra,0,BR,1655374772,98,-26.1114,-49.8053,281.31,0.42
188,Staňkov,87,CZ,1655374772,56,49.5535,13.0698,299.23,2.59
189,Gobabis,0,NA,1655374772,18,-22.45,18.9667,291.92,4.34
190,Shcherbynivka,32,UA,1655374772,43,48.3949,37.791,294.8,4.2
191,Pombal,56,BR,1655374773,88,-6.7703,-37.8017,295.36,2.22
192,Brownsburg,0,US,1655374773,75,39.8434,-86.3978,300.23,5.66
193,Vladimirskaya,5,RU,1655374774,51,44.5455,40.7933,296.49,5.71
194,Ferma,0,RU,1655374774,65,57.9016,56.3064,298.22,3.0
195,Swansea,100,GB,1655374774,65,51.6208,-3.9432,294.59,0.76
196,Troitskaya,25,RU,1655374774,57,43.3056,44.9789,299.17,2.5
197,Stulovo,99,RU,1655374775,50,58.7225,50.1439,295.6,4.24
198,Khagaul,75,IN,1655374775,52,25.5833,85.05,309.12,4.63
199,Gandevi,80,IN,1655374775,54,20.8167,72.9833,306.09,6.96
200,Farafenni,83,GM,1655374776,53,13.5667,-15.6,303.01,5.08
201,Linguère,66,SN,1655374776,44,15.3953,-15.1193,302.9,6.37
202,Cacoal,14,BR,1655374776,87,-11.4386,-61.4472,294.17,1.36
203,Szendrő,23,HU,1655374776,42,48.4,20.7333,301.67,1.12
204,Cadereyta,9,MX,1655374777,77,25.5833,-99.9833,298.8,4.26
205,Wollerau,27,CH,1655374777,63,47.1948,8.719,301.22,3.58
206,Mangotsfield,100,GB,1655374777,61,51.4878,-2.504,295.56,1.54
207,Maholi,33,IN,1655374777,17,27.6667,80.4667,316.63,3.28
208,Guapimirim,0,BR,1655374778,84,-22.5372,-42.9819,289.97,1.66
209,Serang,96,ID,1655374668,80,-6.1149,106.1502,300.63,2.23
210,Jaqué,100,PA,1655374779,88,7.5175,-78.1703,298.1,2.08
211,Körmend,67,HU,1655374779,48,47.011,16.606,299.44,3.95
212,Tsubame,100,JP,1655374729,83,37.65,138.9333,296.09,1.29
213,Cedar Hill,0,US,1655374780,71,32.5885,-96.9561,300.84,4.63
214,Yelahanka,40,IN,1655374555,66,13.1075,77.6003,303.42,4.12
215,El Cocuy,98,CO,1655374780,89,6.4078,-72.4446,281.76,2.22
216,Cordeiro,0,BR,1655374780,92,-22.0286,-42.3608,284.27,1.24
217,Port Hope,98,US,1655374780,23,43.9408,-82.7127,295.19,3.6
218,Agrij,64,RO,1655374781,44,47.0667,23.1333,296.36,1.5
219,Pimienta,100,HN,1655374781,98,15.2772,-87.9745,296.75,0.96
220,Slough,0,GB,1655374781,45,51.5095,-0.5954,299.22,3.09
221,Altayskoye,58,RU,1655374781,67,51.9533,85.3325,293.5,4.69
222,Durgapur,40,IN,1655374782,66,23.4833,87.3167,305.31,4.63
223,Castro Marim,66,PT,1655374782,38,37.2207,-7.4435,299.98,1.06
224,Xiaoweizhai,100,CN,1655374782,98,26.1903,107.5125,292.38,1.25
225,Buzescu,8,RO,1655374783,40,44.0167,25.2333,299.47,2.29
226,Weinheim,0,DE,1655374783,42,49.5483,8.6661,301.64,4.63
227,Weyler,92,PH,1655374783,86,12.1936,124.4039,300.07,3.25
228,Pudoc West,100,PH,1655374783,81,16.9215,120.4235,301.85,1.58
229,Lieşti,4,RO,1655374783,35,45.6167,27.5167,298.69,1.88
230,Eydhafushi,97,MV,1655374784,74,5.1033,73.0708,301.42,6.77
231,Kremnica,12,SK,1655374784,41,48.7052,18.9183,298.15,0.89
232,Easley,0,US,1655374784,91,34.8298,-82.6015,298.94,0.0
233,Villa Luvianos,100,MX,1655374784,91,18.9167,-100.4,289.8,0.83
234,Salsomaggiore Terme,43,IT,1655374784,62,44.8148,9.9796,302.91,1.16
235,Shirwal,70,IN,1655374785,48,18.1333,73.9833,303.79,6.73
236,Fadd,24,HU,1655374785,41,46.4648,18.8193,298.7,2.59
237,Toyohashi,100,JP,1655374785,29,34.7667,137.3833,296.45,2.24
238,Mabini,80,PH,1655374785,68,15.6,120.9833,302.9,3.26
239,Borgentreich,14,DE,1655374786,49,51.5692,9.2411,294.77,4.26
240,Kencong,93,ID,1655374786,85,-8.2833,113.3667,299.9,0.59
241,Macklin,99,CA,1655374786,87,52.3334,-109.9348,285.34,6.98
242,Bancal,54,PH,1655374786,66,11.5591,123.1551,302.8,1.74
243,Minbu,100,MM,1655374786,58,20.1833,94.8833,302.98,5.07
244,Mexicaltzingo,100,MX,1655374787,82,19.2097,-99.5889,285.73,4.12
245,Bariri,0,BR,1655374787,69,-22.0744,-48.7403,289.29,1.67
246,Tibasosa,64,CO,1655374787,92,5.75,-73.0,281.1,0.81
247,Tapejara,0,BR,1655374664,93,-28.0681,-52.0139,282.14,1.37
248,Sabang,100,ID,1655374787,70,5.8933,95.3214,301.22,1.44
249,Estaimpuis,0,BE,1655374788,43,50.6905,3.2872,298.34,3.6
250,Kitob,8,UZ,1655374788,12,39.0843,66.8332,309.85,5.95
251,Union,100,US,1655374788,80,40.6334,-74.2663,293.66,2.06
252,Itajobi,0,BR,1655374789,60,-21.3181,-49.0544,287.88,2.89
253,Evans,0,US,1655374789,78,33.5337,-82.1307,299.28,2.06
254,Gemeente Brunssum,12,NL,1655374789,48,50.9333,5.95,295.85,3.6
255,Łomianki,0,PL,1655374790,45,52.3341,20.886,296.09,2.06
256,Verkhnyaya Pyshma,90,RU,1655374790,62,56.9667,60.5808,294.84,1.96
257,Acamixtla,100,MX,1655374790,89,18.5667,-99.5833,287.91,0.49
258,Rosbach,10,DE,1655374790,37,50.8,7.6167,297.51,3.91
259,Molteno,29,ZA,1655374791,40,-31.3968,26.3625,278.1,1.35
260,Qui Nhon,86,VN,1655374625,77,13.7667,109.2333,302.47,5.8
261,Altamura,0,IT,1655374791,27,40.8292,16.5537,302.37,1.79
262,Prado,80,BR,1655374736,85,-17.3411,-39.2208,292.08,2.04
263,Ermont,0,FR,1655374791,39,48.99,2.258,300.88,2.57
264,Risør,8,NO,1655374792,72,58.7206,9.2342,288.86,4.46
265,Sun Valley,0,US,1655374792,33,39.5963,-119.776,291.47,2.06
266,Atyrá,78,PY,1655374792,86,-25.25,-57.1667,293.98,2.16
267,Mosquera,40,CO,1655374793,93,4.7059,-74.2302,283.2,1.03
268,Mutěnice,75,CZ,1655374793,54,48.9041,17.0292,301.36,5.04
269,Deskáti,47,GR,1655374793,57,39.9225,21.8028,296.57,1.63
270,Redford,100,US,1655374793,81,42.3834,-83.2966,300.3,5.14
271,Unhos,20,PT,1655374794,73,38.8259,-9.1223,296.12,3.09
272,Palmito,100,CO,1655374794,93,9.3333,-75.55,296.67,0.55
273,Dezful,0,IR,1655374794,4,32.3811,48.4058,317.63,3.03
274,Horodok,15,UA,1655374794,48,49.1637,26.5839,293.77,1.59
275,Tiszaföldvár,0,HU,1655374795,26,46.9833,20.25,303.14,4.12
276,San Vicente,5,AR,1655374795,94,-26.6167,-54.1333,284.44,1.13
277,Garcia Hernandez,68,PH,1655374796,77,9.6144,124.2946,301.79,3.67
278,Yurgamysh,16,RU,1655374796,45,55.3714,64.4656,297.44,5.0
279,Xinxiang,3,CN,1655374796,10,35.3089,113.8672,315.32,4.1
280,Texíguat,100,HN,1655374797,94,13.6497,-87.0225,293.25,1.86
281,Quiruvilca,1,PE,1655374797,82,-7.9667,-78.2,272.1,1.37
282,Badak,97,PH,1655374797,86,6.8472,124.7206,298.96,1.97
283,Lake Lucerne,0,US,1655374798,84,25.9651,-80.2414,301.49,2.57
284,Sooko,94,ID,1655374798,90,-7.9097,111.6599,297.47,1.02
285,Iza,84,UA,1655374798,42,48.2152,23.3287,296.41,1.71
286,Vöhringen,68,DE,1655374798,49,48.2784,10.0824,300.7,4.12
287,Barro,98,BR,1655374799,92,-6.7167,-38.8667,293.53,2.35
288,Sobolivka,11,UA,1655374799,45,49.336,28.651,293.81,1.91
289,Sarasota Springs,71,US,1655374799,90,27.3089,-82.4795,298.76,0.45
290,Thoubāl,100,IN,1655374800,94,24.6333,94.0167,295.16,1.04
291,Chany,80,RU,1655374800,63,55.3121,76.7647,292.25,6.1
292,Spartanburg,0,US,1655374801,83,34.9496,-81.9321,299.43,1.54
293,Bistra,86,RO,1655374802,36,46.3833,23.1,296.37,1.67
294,Herdecke,0,DE,1655374803,46,51.4,7.4333,297.02,2.57
295,Panzós,100,GT,1655374803,98,15.4,-89.6667,294.36,0.88
296,Kishanganj,100,IN,1655374803,66,26.1167,87.9333,304.84,3.01
297,Glogova,77,RO,1655374804,41,44.9281,22.9067,298.3,2.17
298,Săgeata,9,RO,1655374804,35,45.1,26.9833,299.31,1.43
299,Valuyki,93,RU,1655374804,52,50.2035,38.1067,294.37,3.74
300,Campiglia Marittima,0,IT,1655374805,60,43.0602,10.6152,300.29,2.63
301,Newport News,100,US,1655374694,73,36.9788,-76.428,296.47,3.09
302,Karancskeszi,8,HU,1655374806,43,48.1635,19.6969,300.41,2.62
303,Ripollet,0,ES,1655374806,37,41.4969,2.1574,311.22,2.06
304,Namioka,75,JP,1655374807,77,40.7072,140.5894,293.27,5.66
305,Plast,10,RU,1655374807,47,54.3691,60.8136,298.2,2.49
306,Ágios Athanásios,3,GR,1655374807,66,41.0667,24.25,298.6,2.07
307,Bhindār,86,IN,1655374807,42,24.5,74.1833,306.87,6.19
308,North Myrtle Beach,20,US,1655374808,81,33.816,-78.68,299.29,1.54
309,Caravelas,86,BR,1655374808,77,-17.7125,-39.2481,293.19,0.68
310,Hryshkivtsi,24,UA,1655374808,54,49.9353,28.6038,292.8,2.58
311,Panino,99,RU,1655374809,58,51.6467,40.1346,293.19,3.49
312,Gámeza,75,CO,1655374809,95,5.8026,-72.8059,279.5,0.81
313,Silleda,86,ES,1655374809,61,42.696,-8.2465,292.34,2.06
314,Paullo,0,IT,1655374809,48,45.4187,9.3977,305.59,1.54
315,El Porvenir,100,HN,1655374811,92,13.7617,-87.3458,293.78,1.56
316,Tibirita,80,CO,1655374812,96,5.0533,-73.5037,284.08,1.12
317,Nyzhnya Duvanka,60,UA,1655374812,50,49.5846,38.1743,294.46,4.18
318,Chernigovka,93,RU,1655374813,79,44.3389,132.5728,291.41,3.18
319,Aasiaat,99,GL,1655374813,79,68.7098,-52.8699,274.92,2.83
320,Barajevo,65,RS,1655374814,39,44.5789,20.4158,301.6,2.3
321,Pully,55,CH,1655374814,57,46.5103,6.6618,304.64,0.88
322,Karloca,35,RS,1655374814,29,45.2025,19.9344,301.98,2.31
323,Moelv,100,NO,1655374815,81,60.9333,10.7,287.33,1.07
324,Havixbeck,26,DE,1655374815,48,51.9833,7.4167,296.96,3.6
325,Anáhuac,13,MX,1655374815,73,27.2333,-100.15,298.16,9.4
326,New York,100,US,1655374296,75,40.7143,-74.006,293.69,4.12
327,Bobbili,100,IN,1655374816,43,18.5667,83.3667,308.91,4.69
328,Uhingen,65,DE,1655374816,54,48.7048,9.5857,302.07,0.45
329,Spring Valley,0,US,1655374816,15,36.108,-115.245,299.83,5.14
330,Moriguchi,75,JP,1655374746,64,34.7333,135.5667,299.18,3.6
331,Narowal,1,PK,1655374817,15,32.1,74.8833,312.09,3.14
332,Alim,84,PH,1655374817,74,9.5649,122.4876,302.06,0.38
333,Arrondissement du Havre,72,FR,1655374817,60,49.5833,0.3333,298.9,2.57
334,The Village,0,US,1655374818,70,35.5609,-97.5514,300.25,6.17
335,Chichihualco,100,MX,1655374818,95,17.6833,-99.65,291.16,1.14
336,Buje,0,HR,1655374818,59,45.41,13.6619,301.0,2.57
337,Juodupė,87,LT,1655374819,58,56.0833,25.6167,291.36,4.07
338,Sulucan,78,PH,1655374819,70,14.8,120.9333,304.36,2.74
339,Mayskiy,25,RU,1655374819,42,47.6931,40.1025,296.82,6.07
340,Sītāmarhi,82,IN,1655374765,35,26.6,85.4833,311.15,1.13
341,Spencer,0,US,1655374820,73,43.1414,-95.1444,292.21,4.63
342,Azacualpa,100,HN,1655374820,99,15.3433,-88.5514,295.51,0.61
343,Takhtamygda,62,RU,1655374820,29,54.1,123.5667,297.74,3.05
344,Dorolţ,0,RO,1655374820,30,47.85,22.8167,300.39,2.57
345,Forest Lake,60,US,1655374821,62,45.2789,-92.9852,293.35,1.79
346,Bulzeşti,61,RO,1655374821,37,44.5333,23.8833,301.25,2.32
347,Kuningan,85,ID,1655374540,90,-6.9758,108.4831,296.15,1.07
348,Commerce City,0,US,1655374821,43,39.8083,-104.9339,291.67,4.63
349,Owak,78,PH,1655374821,76,10.55,123.7,303.2,1.77
350,Strijen,11,NL,1655374822,45,51.7452,4.5508,297.57,0.89
351,Beith,100,GB,1655374822,80,55.7492,-4.6368,292.43,1.54
352,Naas,75,IE,1655374822,62,53.2158,-6.6669,293.94,4.12
353,Unión de San Antonio,99,MX,1655374822,70,21.1,-101.9667,288.93,2.62
354,Dulceşti,8,RO,1655374823,41,46.9667,26.7667,296.83,0.81
355,Montesson,0,FR,1655374824,40,48.9092,2.1375,300.98,3.09
356,Ust'-Ilimsk,99,RU,1655374690,37,58.0006,102.6619,300.67,1.3
357,Dorgoş,67,RO,1655374825,32,46.05,21.8333,300.85,1.84
358,Ames,0,US,1655374825,98,42.0347,-93.6199,291.73,2.68
359,Callejones,100,HN,1655374825,99,15.1667,-88.65,293.58,0.53
360,Ponneri,66,IN,1655374826,54,13.3167,80.2,308.14,6.7
361,Starokozache,69,UA,1655374826,36,46.3372,29.9853,297.2,1.41
362,Bischofsheim,0,DE,1655374826,35,49.9939,8.3672,302.29,5.14
363,Rio Grande City,5,US,1655374827,86,26.3798,-98.8203,298.77,6.63
364,Bīghāpur Khurd,80,IN,1655374827,26,26.35,80.6833,313.03,5.88
365,Buarcos,95,PT,1655374827,67,40.166,-8.8768,294.08,2.02
366,Beloye,47,UA,1655374828,41,48.4952,39.0505,295.51,5.05
367,Amagbagan,100,PH,1655374829,77,16.0914,120.5232,301.83,3.13
368,Odicon,91,PH,1655374829,78,13.53,123.0588,301.52,2.33
369,Lishu,79,CN,1655374829,66,43.3047,124.3278,296.7,6.62
370,Pryazha,100,RU,1655374830,94,61.6926,33.6216,287.72,5.51
371,Amguri,100,IN,1655374830,93,26.8,94.5333,298.1,1.17
372,Güinope,100,HN,1655374830,96,13.8833,-86.9333,289.2,1.28
373,Melhus,100,NO,1655374831,85,63.2855,10.2781,286.96,0.28
374,Drøbak,82,NO,1655374831,48,59.6633,10.6298,294.57,0.59
375,Campolongo Maggiore Scolaro,0,IT,1655374831,52,45.3211,12.0467,302.65,1.54
376,Balaogan,96,PH,1655374655,78,13.4328,123.2818,301.33,0.71
377,Seoni Mālwa,100,IN,1655374832,62,22.45,77.4667,303.35,3.34
378,Cabimas,84,VE,1655374832,85,10.3883,-71.4399,298.82,1.0
379,Villanueva,75,HN,1655374832,94,15.3167,-88.0,296.5,0.0
380,Autazes,27,BR,1655374833,99,-3.5797,-59.1306,294.33,0.77
381,Dhekiajuli,100,IN,1655374833,96,26.7,92.5,297.21,0.6
382,San Carlos Sija,100,GT,1655374833,100,14.9833,-91.55,283.52,1.34
383,Kensington,0,AU,1655374834,64,-33.9167,151.2167,288.78,4.63
384,Sopot,20,PL,1655374834,48,54.4418,18.56,295.75,6.17
385,Otradnoye,21,RU,1655374834,53,59.7775,30.8181,290.95,6.35
386,Pentecoste,83,BR,1655374834,87,-3.7928,-39.2703,295.77,1.8
387,Provincia di Verona,0,IT,1655374835,48,45.4167,11.0333,303.38,1.54
388,Ankola,99,IN,1655374835,68,14.6667,74.3,302.66,3.3
389,Shugurovo,89,RU,1655374835,76,54.5083,52.1326,293.98,3.54
390,Hengshui,41,CN,1655374835,19,37.7322,115.7011,311.88,2.5
391,Novo Cruzeiro,49,BR,1655374836,95,-17.4681,-41.8753,284.92,0.36
392,Dangtu,23,CN,1655374836,41,31.5723,118.4928,307.18,3.29
393,Kalianget,40,ID,1655374836,81,-7.05,113.9333,300.93,5.29
394,Tlanepantla,91,MX,1655374836,72,18.85,-97.9,286.36,3.08
395,Grădinari,51,RO,1655374837,47,44.3922,25.8156,300.09,0.82
396,Creve Coeur,20,US,1655374837,79,38.6609,-90.4226,300.8,3.6
397,Khotyn,13,UA,1655374837,46,48.4833,26.5,295.05,1.48
398,Auchinleck,40,GB,1655374837,63,55.4716,-4.2934,291.92,3.09
399,Woodward,0,US,1655374838,68,36.4337,-99.3904,297.72,4.63
400,Buneşti,36,RO,1655374838,45,46.8333,27.9667,297.66,0.85
401,Kānor,87,IN,1655374839,43,24.4333,74.2667,306.79,6.22
402,Kupino,67,RU,1655374839,57,54.3663,77.2981,292.85,6.61
403,Itá,98,PY,1655374839,69,-25.4833,-57.35,293.81,4.12
404,Latiano,1,IT,1655374840,30,40.5529,17.7205,303.9,4.41
405,Kinston,0,US,1655374840,88,35.2627,-77.5816,294.11,0.0
406,Tocancipá,60,CO,1655374841,94,4.9653,-73.913,283.05,0.9
407,Dobroeşti,0,RO,1655374841,47,44.45,26.1833,300.24,3.09
408,Libertad,96,PH,1655374841,87,8.9442,125.5019,299.27,0.39
409,Atri,8,IT,1655374841,51,42.5778,13.9848,303.19,2.86
410,Triunfo,1,BR,1655374842,96,-29.9433,-51.7181,282.89,0.12
411,Grdelica,4,RS,1655374842,49,42.8934,22.0735,297.91,2.18
412,Everett,99,US,1655374842,89,47.979,-122.2021,286.01,0.45
413,Rindge,20,US,1655374842,92,42.7512,-72.0098,288.71,0.0
414,Fastovetskaya,27,RU,1655374843,39,45.9189,40.1589,298.84,5.31
415,Bila Tserkva,27,UA,1655374843,45,49.8094,30.1121,294.48,2.91
416,San Rafael,0,AR,1655374843,69,-34.6177,-68.3301,277.75,1.49
417,City of San Pedro,75,PH,1655374844,69,14.35,121.0167,303.9,3.6
418,Covington,20,US,1655374844,86,39.0837,-84.5086,299.96,2.57
419,Meziměstí,95,CZ,1655374844,47,50.6246,16.2421,297.46,4.04
420,Lom Sak,75,TH,1655374844,64,16.7798,101.2422,304.27,0.51
421,Pocking,65,DE,1655374845,66,48.4,13.3167,300.35,3.06
422,Mikrokambos,6,GR,1655374845,61,40.8408,22.7752,301.12,2.45
423,Freiberg,100,DE,1655374845,76,50.9167,13.3667,294.25,2.83
424,Handan,16,CN,1655374845,12,36.6006,114.4678,315.56,5.63
425,Kajatian,98,PH,1655374846,86,6.0311,120.9919,299.05,0.83
426,Montemor-o-Novo,98,PT,1655374846,41,38.6481,-8.2145,297.41,1.19
427,Zastron,12,ZA,1655374847,36,-30.3023,27.084,278.12,1.02
428,Neiva,32,CO,1655374847,75,2.9273,-75.2819,293.6,0.95
429,Kirundo Province,41,BI,1655374847,44,-2.5833,30.1667,299.25,2.29
430,High Level,0,CA,1655374847,82,58.5169,-117.136,285.21,3.09
431,Feroke,40,IN,1655374848,74,11.1774,75.8337,302.67,3.6
432,Yamada,100,JP,1655374647,87,39.4667,141.95,291.87,3.02
433,Clemencia,88,CO,1655374848,86,10.5665,-75.325,297.8,0.95
434,Pālghar,72,IN,1655374848,65,19.6833,72.75,303.9,6.21
435,Tansa,29,RO,1655374849,46,46.9167,27.2333,297.72,1.1
436,Lanchyn,20,UA,1655374849,50,48.5578,24.7562,294.57,2.99
437,Chuchkovo,26,RU,1655374849,52,54.2693,41.4465,293.91,2.33
438,Pozořice,20,CZ,1655374849,50,49.2098,16.7907,301.09,3.13
439,Kotikawatta,100,LK,1655374850,84,6.9269,79.9095,300.17,3.09
440,Asímion,2,GR,1655374850,42,35.05,25.1,300.77,4.87
441,Jangaon,100,IN,1655374850,43,17.7167,79.1833,306.72,2.09
442,Lopandino,1,RU,1655374850,52,52.4666,34.8163,293.13,4.42
443,Tarsus,0,TR,1655374851,48,36.9188,34.8784,305.36,3.35
444,Miceşti,71,RO,1655374851,36,44.95,24.8667,298.51,2.3
445,Patancheru,100,IN,1655374851,44,17.5314,78.265,305.63,2.61
446,Oranjestad,46,AW,1655374852,87,12.524,-70.027,300.01,11.0
447,Chhoti Sādri,65,IN,1655374852,39,24.3833,74.7,307.82,6.46
448,Pio,75,PH,1655374852,55,15.0466,120.5181,306.64,3.09
449,Willoughby,0,US,1655374852,73,41.6398,-81.4065,301.34,5.14
450,Cherusti,55,RU,1655374853,48,55.5498,40.0107,293.16,2.79
451,Mont-Saint-Aignan,0,FR,1655374853,38,49.4631,1.0936,298.94,3.09
452,Sagvåg,40,NO,1655374853,72,59.7786,5.3961,289.27,2.57
453,Zhangjiakou,28,CN,1655374854,37,40.81,114.8794,302.16,4.24
454,Boršice,20,CZ,1655374854,50,49.0625,17.3508,300.64,4.12
455,Overland,82,US,1655374854,78,38.7012,-90.3623,300.76,1.34
456,Marshall,0,US,1655374855,89,34.3834,-86.3333,296.14,1.54
457,Gemeente Oldenzaal,8,NL,1655374855,50,52.3,6.9333,295.93,3.58
458,Negraşi,39,RO,1655374855,39,44.6,25.1167,298.85,2.5
459,Oxford,20,GB,1655374855,55,51.7522,-1.256,297.45,1.54
460,Saku,100,JP,1655374856,70,36.2167,138.4833,293.58,0.8
461,Cristóbal Obregón,100,MX,1655374856,95,16.35,-93.5333,292.04,0.58
462,Wronki,58,PL,1655374856,44,52.7105,16.3804,298.45,2.41
463,Sokolov,0,CZ,1655374856,46,50.1813,12.6401,297.98,4.12
464,Smithers,100,CA,1655374857,82,54.7804,-127.1743,284.33,0.0
465,Redea,10,RO,1655374857,39,44.05,24.3,302.02,2.63
466,Bagupaye,59,PH,1655374694,72,13.5689,122.3936,301.87,0.6
467,Sapa,100,PH,1655374857,78,5.1544,120.3241,300.26,3.34
468,Olpe,13,DE,1655374858,47,51.0333,7.85,295.73,3.64
469,Mhasla,33,IN,1655374859,61,18.1333,73.1167,304.46,5.19
470,Canchungo,66,GW,1655374859,60,12.0672,-16.0333,301.22,4.55
471,Neuenrade,18,DE,1655374860,48,51.2833,7.7833,295.27,3.42
472,Tornyospálca,58,HU,1655374860,38,48.2667,22.1833,299.75,2.16
473,Toboso,70,PH,1655374636,74,10.7144,123.5162,301.85,1.67
474,Ramsi,98,EE,1655374860,89,58.3066,25.5416,286.52,2.98
475,Dalumangcob,62,PH,1655374861,86,7.2167,124.3,299.42,0.95
476,Maralal,60,KE,1655374861,35,1.0968,36.698,297.44,4.1
477,Baguer,81,PH,1655374705,89,7.2561,124.5042,298.85,1.39
478,Cansanção,13,BR,1655374861,88,-10.6672,-39.4992,289.92,2.45
479,Garbsen,40,DE,1655374861,50,52.4167,9.6,296.66,4.12
480,Parnamirim,20,BR,1655374862,88,-5.9156,-35.2628,298.09,3.09
481,Kamina,50,CD,1655374862,20,-8.7386,24.9906,302.23,4.22
482,Hœnheim,0,FR,1655374862,39,48.6222,7.7555,302.77,4.12
483,Remetea Mare,0,RO,1655374862,31,45.7794,21.3761,301.43,2.24
484,Lommel,20,BE,1655374863,48,51.2317,5.311,296.33,3.6
485,Nizhniy Chir,17,RU,1655374863,53,48.3597,43.0865,297.59,6.92
486,Armenia,4,AM,1655374863,48,40.0,45.0,293.21,3.42
487,Cartago,100,CO,1655374863,99,4.7464,-75.9117,293.79,0.75
488,Schrems,46,AT,1655374864,35,48.7833,15.0667,301.6,0.49
489,Tultitlán de Mariano Escobedo,100,MX,1655374864,73,19.6472,-99.1708,288.03,2.55
490,Wecker,0,LU,1655374864,31,49.6914,6.3883,299.39,5.14
491,La Gloria,100,CO,1655374864,95,8.6187,-73.8027,295.84,0.33
492,Arrondissement de Nice,63,FR,1655374865,50,44.0,7.25,297.93,3.59
493,Ise,100,JP,1655374865,93,34.4833,136.7,294.77,2.73
494,Nkpor,100,NG,1655374865,86,6.1516,6.8446,298.01,1.03
495,Calatagan,99,PH,1655374866,72,13.8833,120.65,302.66,3.58
496,Trhové Sviny,42,CZ,1655374866,31,48.8423,14.6392,302.06,2.74
497,Sribne,27,UA,1655374866,50,50.6638,32.9187,294.07,3.51
498,Vidalia,100,US,1655374866,94,32.2177,-82.4135,298.21,2.06
499,Nettuno,35,IT,1655374867,42,41.4826,12.679,307.77,5.13
